[
  {
    "id": 101,
    "name": "Manayata Tech Park",
    "category": "IT Company",
    "lng": 77.62166148849937,
    "lat": 13.047938625907042, 
    "distanceLabel": "9.3 km",
    "timeLabel": "22 min",
    "rating": 4.4,
    "featured": true,
    "image": "/RGA.webp"
  },
  {
    "id": 102,
    "name": "Embassy Manyata Business Park",
    "category": "IT Company",
    "lng":  77.6194128267518,
    "lat": 13.044597874628614,
    "distanceLabel": "7.9 km",
    "timeLabel": "19 mins",
    "rating": 4.3,
    "featured": true,
    "image": "/wipro.webp"
  },
  {
    "id": 103,
    "name": "Cessna Business Park",
    "category": "IT Company",
    "lng": 77.69328282549846,
    "lat": 12.936783327535188,
    "distanceLabel": "13.5 km",
    "timeLabel": "25 min",
    "rating": 4.5,
    "image": "/cessna.webp"
  },
  {
    "id": 104,
    "name": "Infosys",
    "category": "IT Company",
    "lng": 77.66386888815293,
    "lat": 12.849812954159967,
    "distanceLabel": "13.2 km",
    "timeLabel": "30 min",
    "rating": 4.4,
    "image": "/infosys.webp"
  },
  {
    "id": 105,
    "name": "Kristu Jayanti (Deemed to be University)",
    "category": "school",
    "lng": 77.64509830413093,
    "lat": 13.059118628986191, 
    "distanceLabel": "1.7 km",
    "timeLabel": "5 min",
    "rating": 4.3,
    "image": "assets/janatiuni.jpg"
  },
  {
    "id": 106,
    "name": "KLAY Hebbal - Preschools and Daycare",
    "category": "school",
    "lng":77.62591711976451,
    "lat": 13.05707003608906, 
    "distanceLabel": "1.6 km",
    "timeLabel": "4 min",
    "rating": 4.8,
    "image": "/assets/klay.jpg"
  },
  {
    "id": 107,
    "name": "St. Joseph English High School",
    "category": "school",
    "lng": 77.77694822265036,
    "lat": 12.845398656039851,
    "distanceLabel": "2.6 km",
    "timeLabel": "8 min",
    "rating": 4.4,
    "image": "/assets/St. Joseph English High School.jpg"
  },
  {
    "id": 108,
    "name": "Atria University",
    "category": "school",
    "lng": 77.59428012282753,
    "lat":  13.034764342493466,
    "distanceLabel": "8.5 km",
    "timeLabel": "25 min",
    "rating": 4,
    "image": "/assets/Atria University.jpg"
  },
  {
    "id": 109,
    "name": "Eesha Multispeciality Hospital",
    "category": "hospital",
    "lng": 77.60780675248022,
    "lat": 13.056833919119288, 
    "distanceLabel": "6 km",
    "timeLabel": "15 min",
    "rating": 4.4,
    "image": "/assets/esha.jpg"
  },
  {
    "id": 110,
    "name": "Advaith Hospital",
    "category": "hospital",
    "lng":  77.61278481614998,
    "lat": 13.05365672315751,
    "distanceLabel": "4.1 km",
    "timeLabel": "10 min",
    "rating": 4.6,
    "image": "/assets/advait.jpg"
  },
  {
    "id": 111,
    "name": "Sparsh Hospital Yelahanka",
    "category": "hospital",
    "lng": 77.59809959916055,
    "lat": 13.096670676142327, 
    "distanceLabel": "6.7 km",
    "timeLabel": "18 min",
    "rating": 4.8,
    "image": "/assets/sparsh.jpg"
  },
  {
    "id": 112,
    "name": "Surgeon Gowda's Gastro & Laparoscopy Centre",
    "category": "hospital",
    "lng": 77.627226412935,
    "lat":13.06975228578677, 
    "distanceLabel": "1.4 km",
    "timeLabel": "2 min",
    "rating": 4.9,
    "image": "/assets/gowda.jpg"
  },
  {
    "id": 113,
    "name": "Bhartiya Mall Of Bengaluru",
    "category": "mall",
    "lng":  77.64509848318194,
    "lat":13.08581197746782,
    "distanceLabel": "3.6 km",
    "timeLabel": "8 min",
    "rating": 4.3,
    "image": "assets/mallofbangalore.jpg"
  },
  {
    "id": 114,
    "name": "Reliance Digital",
    "category": "mall",
    "lng": 77.6265303812176,
    "lat": 13.045763422497933,
    "distanceLabel": "2.3 km",
    "timeLabel": "7 min",
    "rating": 4.5,
    "image": "/assets/relience.jpg"
  },

  {
    "id": 115,
    "name": "Harshodaya Convention centre",
    "category": "landmark",
    "lng": 77.62378935256353,
    "lat": 13.071927772200752,
    "distanceLabel": "2.1 km",
    "timeLabel": "4 min",
    "rating": 4.5,
    "image": "/assets/harshodaya.jpg"
  },
  {
    "id": 116,
    "name": "Kidztopiaa",
    "category": "mall",
    "lng": 77.74658305174466,
    "lat": 12.892135753124949,
    "distanceLabel": "5.7 km",
    "timeLabel": "12 min",
    "rating": 4.5,
    "image": "/kidztopia.webp"
  },

  {
    "id": 118,
    "name": "K Narayanapura Cross",
    "category": "bus_stop",
    "lng":  77.63349648798277,
    "lat": 13.0681312829486,
    "distanceLabel": "0.7 km",
    "timeLabel": "2 min",
    "rating": 4.1,
    "image": "/assets/ncross.jpg"
  },
  {
    "id": 119,
    "name": "Bus Station, Sompura Gate",
    "category": "bus_stop",
    "lng": 77.77189302040267,
    "lat": 12.86242513817878,
    "distanceLabel": "2.3 km",
    "timeLabel": "4 min",
    "rating": 5,
    "image": "/sobbs.webp"
  },
  {
    "id": 120,
    "name": "Karmelaram Railway Station",
    "category": "bus_stop",
    "lng": 77.70602386412557,
    "lat": 12.907550285982408,
    "distanceLabel": "9.3 km",
    "timeLabel": "18 min",
    "rating": 3.6,
    "image": "/karmelaram.webp"
  },
    {
    "id": 121,
    "name": "Courtyard by Marriott Bengaluru Hebbal",
    "category": "mall",
    "lng": 77.61005281661488,
    "lat": 13.042925432915661,
    "distanceLabel": "4.7 km",
    "timeLabel": "16 min",
    "rating": 4.4,
    "image": "/assets/mariott.jpg"
  },
    {
    "id": 122,
    "name": "The Galleria Mall",
    "category": "mall",
    "lng": 77.59458031063998,
    "lat":13.096837884214075, 
    "distanceLabel": "8 km",
    "timeLabel": "18 min",
    "rating": 4.4,
    "image": "/assets/galleria.jpg"
  },
    {
    "id": 123,
    "name": "CMA PALACE Convention & Wedding Hall",
    "category": "landmark",
    "lng": 77.63747169759057,
    "lat": 13.094133244047581,
    "distanceLabel": "4.4 km",
    "timeLabel": "9 min",
    "rating": 4.5,
    "image": "/assets/cmapalace.jpg"
  },
    {
    "id": 124,
    "name": "Rachenahalli Lake Park",
    "category": "landmark",
    "lng": 77.61085161193381,
    "lat": 13.066778025961703, 
    "distanceLabel": "4.5 km",
    "timeLabel": "10 min",
    "rating": 4.5,
    "image": "/assets/Rachenahalli Lake.jpg"
  },
    {
    "id": 125,
    "name": "Manyata Residency Park",
    "category": "landmark",
    "lng":  77.62161773236403,
    "lat": 13.055652246834297,
    "distanceLabel": "2.5 km",
    "timeLabel": "6 min",
    "rating": 4.3,
    "image": "/assets/manrespark.jpg"
  }
]